  - name: Avis
    latitude: 36.828902
    longitude: -76.137087
    radius: 300
    icon: mdi:domain

  - name: CACI
    latitude: 36.768627
    longitude: -76.234493
    icon: mdi:domain
    radius: 200

  - name: NavyBase
    latitude: 36.920547
    longitude: -76.300262
    icon: mdi:ferry
    radius: 200

  - name: Barre
    latitude: 36.8522829
    longitude: -76.0243934
    icon: mdi:human-greeting

  - name: Home
    latitude: 36.852009
    longitude: -75.980347
    radius: 65
    icon: mdi:account-multiple
